t_s,roll_deg,pitch_deg,yaw_deg,roll_err_deg,pitch_err_deg,yaw_err_deg,wx_rad_s,wy_rad_s,wz_rad_s,throttle_cmd,rcs_cmd_sum,legs_cmd
0.0,44.99333048187747,45.00407659581259,44.99208633129367,44.99333048187748,45.00407659581258,44.99208633129368,-0.001799571211449802,-0.0018015220994129777,-0.01145902369171381,-1.0,6.0,-1.0
0.03333333333333333,44.9759820956802,45.0146680085879,44.971503586367845,44.97598209568021,45.01466800858789,44.97150358636784,-0.003598529379814863,-0.003603561082854867,-0.02291783317923546,-1.0,6.0,-1.0
0.06666666666666667,44.94793358889982,45.03177225454076,44.93822835610861,44.94793358889982,45.03177225454076,44.93822835610861,-0.005396208260208368,-0.005406741052865982,-0.03437640145421028,-1.0,6.0,-1.0
0.1,44.90916870424685,45.055362786046764,44.89224642526535,44.90916870424684,45.055362786046764,44.892246425265355,-0.007191940676420927,-0.007211686577647924,-0.04583470895886421,-1.0,6.0,-1.0
0.13333333333333333,44.859651912416005,45.08543470236883,44.83351674615106,44.859651912416005,45.085434702368815,44.833516746151076,-0.008985058404505253,-0.009019019082188606,-0.057292718440294266,-1.0,6.0,-1.0
0.16666666666666666,44.79933525589469,45.121951028343176,44.7619913423814,44.79933525589468,45.12195102834317,44.76199134238139,-0.010774890892207623,-0.010829359292984009,-0.06875041127204895,-1.0,6.0,-1.0
0.19999999999999998,44.72817018354553,45.1648825663797,44.67761668956061,44.728170183545544,45.164882566379696,44.6776166895606,-0.0125607680529356,-0.012643324211239815,-0.08020776510238647,-1.0,6.0,-1.0
0.2333333333333333,44.646088496797326,45.2142017075999,44.58032380784903,44.64608849679732,45.21420170759989,44.58032380784904,-0.01434201467782259,-0.01446153037250042,-0.09166474640369415,-1.0,6.0,-1.0
0.26666666666666666,44.55301683450131,45.26985499982588,44.47003358401886,44.553016834501314,45.26985499982588,44.47003358401886,-0.01611795276403427,-0.016284586861729622,-0.1031213328242302,-1.0,6.0,-1.0
0.3,44.448875458236394,45.331802340598536,44.34666471059512,44.448875458236394,45.331802340598536,44.34666471059513,-0.0178879052400589,-0.01811310462653637,-0.11457749456167221,-1.0,6.0,-1.0
0.3333333333333333,44.33357219647098,45.39998609281377,44.210117163759975,44.333572196470975,45.39998609281377,44.21011716375997,-0.01965118572115898,-0.019947683438658714,-0.126033216714859,-1.0,6.0,-1.0
0.36666666666666664,44.20700298945599,45.47434180113829,44.060280581180244,44.20700298945598,45.47434180113827,44.06028058118026,-0.021407106891274452,-0.02178892306983471,-0.137488454580307,-1.0,6.0,-1.0
0.39999999999999997,44.06905440993289,45.554811824083934,43.8970380891353,44.069054409932896,45.55481182408394,43.89703808913531,-0.023154975846409798,-0.02363741584122181,-0.1489432007074356,-1.0,6.0,-1.0
0.4333333333333333,43.919607552275586,45.64131469227962,43.72026232393262,43.9196075522756,45.64131469227962,43.72026232393262,-0.024894099682569504,-0.025493750348687172,-0.16039741039276123,-1.0,6.0,-1.0
0.4666666666666666,43.758530104705,45.73377450891225,43.52981666026431,43.758530104704995,45.733774508912255,43.529816660264295,-0.026623772457242012,-0.02735850214958191,-0.17185108363628387,-1.0,6.0,-1.0
0.49999999999999994,43.5856742790057,45.832113984428865,43.32554139821652,43.585674279005715,45.83211398442886,43.325541398216515,-0.028343286365270615,-0.029232248663902283,-0.18330417573451996,-1.0,6.0,-1.0
0.5333333333333333,43.40089724250686,45.93622658391505,43.10728845409551,43.40089724250687,45.936226583915065,43.1072884540955,-0.030051931738853455,-0.03111555427312851,-0.1947566568851471,-1.0,6.0,-1.0
0.5666666666666667,43.20402890600245,46.046024034176796,42.874878827092544,43.204028906002435,46.0460240341768,42.87487882709254,-0.03174898773431778,-0.03300897777080536,-0.2062085121870041,-1.0,6.0,-1.0
0.6,42.99489605449954,46.16139101671559,42.628127903785085,42.994896054499534,46.16139101671558,42.628127903785085,-0.03343372419476509,-0.034913063049316406,-0.21765971183776855,-1.0,6.0,-1.0
0.6333333333333333,42.773322674085726,46.2822232018509,42.366851081502894,42.77332267408573,46.28222320185091,42.36685108150289,-0.03510541096329689,-0.03682835400104523,-0.2291102409362793,-1.0,6.0,-1.0
0.6666666666666666,42.53910705334403,46.40839393703285,42.09083427339432,42.53910705334404,46.408393937032855,42.090834273394314,-0.03676331043243408,-0.0387553796172142,-0.24056003987789154,-1.0,6.0,-1.0
0.7,42.29204905912909,46.539771467163774,41.799868991651515,42.292049059129084,46.53977146716378,41.799868991651515,-0.03840667009353638,-0.04069465771317482,-0.2520091235637665,-1.0,6.0,-1.0
0.7333333333333333,42.031940270093514,46.676219977097574,41.49373338108606,42.031940270093514,46.676219977097574,41.49373338108607,-0.040034737437963486,-0.04264669865369797,-0.26345744729042053,-1.0,6.0,-1.0
0.7666666666666666,41.7585502030861,46.817599679258485,41.17218236811608,41.758550203086116,46.81759967925848,41.17218236811609,-0.041646745055913925,-0.04461199417710304,-0.2749049961566925,-1.0,6.0,-1.0
0.7999999999999999,41.47164726022018,46.96374477856625,40.834973643642606,41.47164726022017,46.96374477856625,40.83497364364259,-0.043241921812295914,-0.04659103974699974,-0.2863517105579376,-1.0,6.0,-1.0
0.8333333333333333,41.170983454105965,47.11450657757856,40.481844796585825,41.170983454105965,47.11450657757855,40.48184479658584,-0.04481948912143707,-0.04858429729938507,-0.29779762029647827,-1.0,6.0,-1.0
0.8666666666666666,40.85631135441557,47.2696947786615,40.11253385728661,40.85631135441557,47.26969477866151,40.11253385728662,-0.04637865722179413,-0.05059222877025604,-0.3092426359653473,-1.0,6.0,-1.0
0.8999999999999999,40.52736371578139,47.429136536520964,39.726757903873974,40.52736371578139,47.42913653652097,39.726757903873974,-0.04791862145066261,-0.05261528119444847,-0.32068678736686707,-1.0,6.0,-1.0
0.9333333333333332,40.1838687921324,47.59264142147661,39.32423073406045,40.18386879213241,47.5926414214766,39.32423073406045,-0.04943857714533806,-0.05465388298034668,-0.3321300148963928,-1.0,6.0,-1.0
0.9666666666666666,39.82554238429341,47.760006023738484,38.90464852852401,39.82554238429341,47.76000602373849,38.904648528524,-0.0509377047419548,-0.056708451360464096,-0.34357231855392456,-1.0,6.0,-1.0
0.9999999999999999,39.45209301143728,47.93100883604908,38.467705220912045,39.45209301143727,47.93100883604909,38.46770522091205,-0.05241518095135689,-0.058779384940862656,-0.3550136387348175,-1.0,6.0,-1.0
1.0333333333333332,39.06322036879102,48.10543893369601,38.01308082232589,39.063220368791015,48.10543893369601,38.01308082232589,-0.05387016013264656,-0.0608670637011528,-0.36645397543907166,-1.0,6.0,-1.0
1.0666666666666667,38.658617961872544,48.2830465958495,37.54045144603601,38.658617961872544,48.2830465958495,37.54045144603601,-0.05530179664492607,-0.06297186017036438,-0.3778932988643646,-1.0,6.0,-1.0
1.1,38.23796736322235,48.463596829218766,37.04947619637369,38.23796736322234,48.46359682921876,37.04947619637368,-0.05670923367142677,-0.06509411334991455,-0.3893316090106964,-1.0,6.0,-1.0
1.1333333333333335,37.80094744849663,48.646820083142266,36.53981756679015,37.80094744849662,48.646820083142266,36.53981756679014,-0.058091603219509125,-0.06723415851593018,-0.40076881647109985,-1.0,6.0,-1.0
1.166666666666667,37.34722775116466,48.83244731722696,36.011120908387,37.347227751164645,48.83244731722694,36.011120908387,-0.05944802612066269,-0.06939230859279633,-0.41220495104789734,-1.0,6.0,-1.0
1.2000000000000004,36.87647812002359,49.02019125012662,35.46303417942151,36.876478120023584,49.02019125012663,35.46303417942152,-0.060777608305215836,-0.07156885415315628,-0.4236399829387665,-1.0,6.0,-1.0
1.2333333333333338,36.38835362900234,49.209751768731735,34.89518906072721,36.388353629002324,49.20975176873172,34.895189060727226,-0.062079451978206635,-0.07376406341791153,-0.4350738525390625,-1.0,6.0,-1.0
1.2666666666666673,35.8825170575212,49.400821955697594,34.307227278453986,35.882517057521206,49.400821955697594,34.30722727845398,-0.06335265189409256,-0.07597818225622177,-0.4465065598487854,-1.0,6.0,-1.0
1.3000000000000007,35.35862463756503,49.593067936449415,33.6987771278571,35.35862463756503,49.5930679364494,33.69877712785709,-0.0645962730050087,-0.07821144908666611,-0.4579380750656128,-1.0,6.0,-1.0
1.3333333333333341,34.816331726263094,49.786149638731196,33.06946961409041,34.81633172626309,49.786149638731175,33.069469614090394,-0.06580939888954163,-0.08046405762434006,-0.4693683981895447,-1.0,6.0,-1.0
1.3666666666666676,34.25529108452446,49.9797069061699,32.418931438679586,34.25529108452445,49.9797069061699,32.4189314386796,-0.06699107587337494,-0.08273619413375854,-0.4807974696159363,-1.0,6.0,-1.0
1.400000000000001,33.6751626807688,50.17337256181164,31.74679360558643,33.67516268076879,50.17337256181163,31.74679360558644,-0.06814035773277283,-0.0850280150771141,-0.4922252595424652,-1.0,6.0,-1.0
1.4333333333333345,33.075616195778856,50.36675425645532,31.052698090116618,33.07561619577886,50.36675425645531,31.052698090116625,-0.06925627589225769,-0.08733964711427689,-0.5036517977714539,-1.0,6.0,-1.0
1.466666666666668,32.45631849148189,50.559437737799364,30.336281646283588,32.45631849148189,50.55943773779937,30.336281646283595,-0.07033785432577133,-0.08967121690511703,-0.5150769948959351,-1.0,6.0,-1.0
1.5000000000000013,31.81694980479908,50.75101148090591,29.59719527768023,31.816949804799087,50.75101148090592,29.59719527768023,-0.07138411700725555,-0.09202278405427933,-0.5265008807182312,-1.0,6.0,-1.0
1.5333333333333348,31.15719916897401,50.94103223552658,28.835094209556814,31.157199168974003,50.941032235526585,28.835094209556804,-0.07239406555891037,-0.09439440816640854,-0.5379233956336975,-1.0,6.0,-1.0
1.5666666666666682,30.47677861308269,51.12905301726114,28.04965805271609,30.476778613082697,51.12905301726112,28.049658052716097,-0.07336670160293579,-0.09678612649440765,-0.5493444800376892,-1.0,6.0,-1.0
1.6000000000000016,29.79023789159146,51.307788442703426,27.25956657274171,29.79023789159146,51.30778844270341,27.259566572741715,-0.07431425154209137,-0.09918798506259918,-0.5378466844558716,-1.0,6.0,-1.0
1.633333333333335,29.10692130204743,51.47320260962062,26.47665698300599,29.10692130204744,51.47320260962062,26.476656983005984,-0.07525889575481415,-0.10158317536115646,-0.5263491868972778,-1.0,6.0,-1.0
1.6666666666666685,28.42752043069631,51.62551270333238,25.701621307178982,28.427520430696315,51.625512703332404,25.70162130717899,-0.07620156556367874,-0.10397131741046906,-0.514851987361908,-1.0,6.0,-1.0
1.700000000000002,27.752703240961594,51.76493913924733,24.935135094601932,27.7527032409616,51.76493913924733,24.935135094601936,-0.07714316993951797,-0.10635203868150711,-0.5033551454544067,-1.0,6.0,-1.0
1.7333333333333354,27.08313443531278,51.891713868327095,24.17787062408283,27.08313443531277,51.89171386832711,24.17787062408284,-0.07808463275432587,-0.10872496664524078,-0.49185866117477417,-1.0,6.0,-1.0
1.7666666666666688,26.419463398776635,52.006069960405846,23.43048542486762,26.419463398776646,52.00606996040587,23.43048542486763,-0.07902687788009644,-0.11108975112438202,-0.48036256432533264,-1.0,6.0,-1.0
1.8000000000000023,25.76231633400278,52.10826149161315,22.69361788445698,25.762316334002794,52.10826149161313,22.69361788445698,-0.07997080683708191,-0.11344603449106216,-0.46886688470840454,-1.0,6.0,-1.0
1.8333333333333357,25.112306260381068,52.19852758439169,21.967893268525867,25.112306260381068,52.19852758439167,21.967893268525856,-0.0809173434972763,-0.11579348146915436,-0.4573715627193451,-1.0,6.0,-1.0
1.8666666666666691,24.47001836258284,52.27714668794337,21.25391273324383,24.470018362582852,52.27714668794336,21.25391273324383,-0.08186738938093185,-0.11813174188137054,-0.44587671756744385,-1.0,6.0,-1.0
1.9000000000000026,23.836021638719046,52.34436066889801,20.55226148253631,23.836021638719053,52.34436066889802,20.552261482536306,-0.08282185345888138,-0.12046048790216446,-0.43438225984573364,-1.0,6.0,-1.0
1.933333333333336,23.2108600214925,52.40043934758126,19.863501097145537,23.210860021492508,52.400439347581276,19.86350109714555,-0.0837816521525383,-0.12277939170598984,-0.42288827896118164,-1.0,6.0,-1.0
1.9666666666666694,22.595039990710045,52.445660330308144,19.18815915297056,22.59503999071003,52.44566033030817,19.18815915297056,-0.08474767208099365,-0.12508812546730042,-0.41139477491378784,-1.0,6.0,-1.0
2.0000000000000027,21.989057837922285,52.48028686429365,18.526753065327952,21.98905783792229,52.48028686429365,18.52675306532796,-0.08572081476449966,-0.12738637626171112,-0.39990174770355225,-1.0,6.0,-1.0
2.033333333333336,21.393371599547965,52.50459322134444,17.87976422618488,21.393371599547955,52.50459322134443,17.879764226184882,-0.08670197427272797,-0.1296738237142563,-0.38840922713279724,-1.0,6.0,-1.0
2.066666666666669,20.80841390205298,52.51885885085125,17.24765036680354,20.80841390205298,52.51885885085125,17.24765036680354,-0.08769204467535019,-0.13195012509822845,-0.3769172132015228,-1.0,6.0,-1.0
2.1000000000000023,20.23458179531966,52.52336246194165,16.630835590754536,20.234581795319666,52.52336246194162,16.63083559075455,-0.08869189769029617,-0.13421499729156494,-0.3654257357120514,-1.0,6.0,-1.0
2.1333333333333355,19.67225594477157,52.51836596829654,16.02972745625936,19.672255944771564,52.51836596829653,16.02972745625936,-0.08970242738723755,-0.13646811246871948,-0.35393479466438293,-1.0,6.0,-1.0
2.1666666666666687,19.121774427026068,52.50415483270169,15.444693690779214,19.12177442702608,52.50415483270166,15.444693690779214,-0.09072449803352356,-0.138709157705307,-0.34244439005851746,-1.0,6.0,-1.0
2.200000000000002,18.583450154247508,52.48100145814095,14.876078548245614,18.583450154247505,52.481001458140945,14.876078548245623,-0.09175898134708405,-0.14093780517578125,-0.33095458149909973,-1.0,6.0,-1.0
2.233333333333335,18.057565680743924,52.44917008755941,14.324196782193859,18.057565680743927,52.449170087559416,14.324196782193864,-0.09280674159526825,-0.14315374195575714,-0.3194653391838074,-1.0,6.0,-1.0
2.2666666666666684,17.54437673148611,52.40892590084306,13.789338902718407,17.544376731486107,52.40892590084305,13.789338902718399,-0.09386863559484482,-0.14535664021968842,-0.30797669291496277,-1.0,6.0,-1.0
2.3000000000000016,17.044105431134586,52.36053479594577,13.27176112830505,17.0441054311346,52.360534795945796,13.271761128305057,-0.0949455201625824,-0.1475462019443512,-0.2964886724948883,-1.0,6.0,-1.0
2.333333333333335,16.55695029154476,52.30426758727424,12.771698607475864,16.556950291544744,52.30426758727421,12.771698607475859,-0.09603822976350784,-0.14972208440303802,-0.285001277923584,-1.0,6.0,-1.0
2.366666666666668,16.083076859400276,52.240364842246095,12.289355536210344,16.08307685940027,52.240364842246116,12.289355536210342,-0.0971476212143898,-0.15188394486904144,-0.2735145092010498,-1.0,6.0,-1.0
2.4000000000000012,15.622630273237162,52.169080941822656,11.824915665703978,15.622630273237165,52.169080941822685,11.824915665703985,-0.09827451407909393,-0.15403147041797638,-0.26202839612960815,-1.0,6.0,-1.0
2.4333333333333345,15.175721193030741,52.0906691969887,11.378531554224628,15.175721193030737,52.090669196988685,11.378531554224628,-0.0994197353720665,-0.15616431832313538,-0.25054293870925903,-1.0,6.0,-1.0
2.4666666666666677,14.742441534841278,52.005366134121985,10.950335948710423,14.742441534841268,52.00536613412197,10.950335948710412,-0.10058410465717316,-0.1582821160554886,-0.23905818164348602,-1.0,6.0,-1.0
2.500000000000001,14.322854936419747,51.91340638645122,10.54043632418901,14.322854936419736,51.91340638645119,10.540436324189002,-0.10176843404769897,-0.16038453578948975,-0.22757409512996674,-1.0,6.0,-1.0
2.533333333333334,13.917005248945669,51.815012241651196,10.148920396549636,13.917005248945667,51.81501224165117,10.148920396549633,-0.10297352820634842,-0.1624712198972702,-0.21609070897102356,-1.0,6.0,-1.0
2.5666666666666673,13.524912531838117,51.71041338551927,9.775854440090303,13.524912531838112,51.710413385519274,9.775854440090294,-0.10420018434524536,-0.16454178094863892,-0.20460805296897888,-1.0,6.0,-1.0
2.6000000000000005,13.14657380054952,51.59981683124323,9.421281922538254,13.146573800549515,51.59981683124324,9.421281922538258,-0.10544917732477188,-0.16659584641456604,-0.1931261122226715,-1.0,6.0,-1.0
2.6333333333333337,12.781967719086454,51.483431555231974,9.085229961017678,12.781967719086454,51.48343155523198,9.085229961017685,-0.10672129690647125,-0.16863304376602173,-0.18164490163326263,-1.0,6.0,-1.0
2.666666666666667,12.431052881774134,51.36146822631373,8.767707355404987,12.431052881774132,51.36146822631373,8.767707355404982,-0.10801731795072556,-0.17065297067165375,-0.17016445100307465,-1.0,6.0,-1.0
2.7,12.093771253301714,51.23411924929603,8.468705130401313,12.093771253301702,51.23411924929604,8.468705130401318,-0.10933798551559448,-0.17265522480010986,-0.15868477523326874,-1.0,6.0,-1.0
2.7333333333333334,11.770047417361933,51.10155933246161,8.188200659352571,11.77004741736194,51.10155933246161,8.18820065935258,-0.11068406701087952,-0.17463938891887665,-0.14720585942268372,-1.0,6.0,-1.0
2.7666666666666666,11.443250064034503,50.96669967179602,7.904869630861787,11.44325006403449,50.966699671796036,7.904869630861782,-0.11203261464834213,-0.17662003636360168,-0.1586451381444931,-1.0,6.0,-1.0
2.8,11.120056574735912,50.82843039967987,7.627283898848221,11.120056574735912,50.828430399679895,7.627283898848217,-0.11336798220872879,-0.1786070615053177,-0.1471657007932663,-1.0,6.0,-1.0
2.833333333333333,10.810322510879788,50.68525859139825,7.368188358524252,10.810322510879791,50.685258591398274,7.368188358524246,-0.11473021656274796,-0.18057504296302795,-0.13568706810474396,-1.0,6.0,-1.0
2.8666666666666663,10.513931657428762,50.53736637006205,7.127522395554554,10.51393165742875,50.537366370062045,7.127522395554555,-0.11612005531787872,-0.18252351880073547,-0.12420924752950668,-1.0,6.0,-1.0
2.8999999999999995,10.214484696368514,50.387336019503834,6.884101148130622,10.214484696368526,50.38733601950384,6.884101148130632,-0.11751347780227661,-0.1844678372144699,-0.135649636387825,-1.0,6.0,-1.0
2.9333333333333327,9.918540041731344,50.234194695269885,6.6464176495230864,9.918540041731342,50.234194695269885,6.646417649523079,-0.11889412999153137,-0.1864183396100998,-0.12417130917310715,-1.0,6.0,-1.0
2.966666666666666,9.635762304967004,50.07660195485586,6.427085871870428,9.635762304966999,50.07660195485585,6.427085871870425,-0.12030380964279175,-0.18834836781024933,-0.11269382387399673,-1.0,6.0,-1.0
2.999999999999999,9.357979273780435,49.91583074701422,6.215534030715632,9.357979273780444,49.91583074701423,6.215534030715629,-0.12173047661781311,-0.19026564061641693,-0.11267586797475815,-1.0,4.0,-1.0
3.0333333333333323,9.08834105478649,49.75151324030952,6.015925089250094,9.08834105478648,49.75151324030954,6.015925089250105,-0.1231660395860672,-0.19217529892921448,-0.10119899362325668,-1.0,6.0,-1.0
3.0666666666666655,8.815640094878058,49.585212936480666,5.813611976058116,8.815640094878056,49.58521293648066,5.81361197605811,-0.12460636347532272,-0.19407999515533447,-0.11264034360647202,-1.0,6.0,-1.0
3.0999999999999988,8.546270390481592,49.41607899239322,5.61697402323696,8.546270390481595,49.4160789923932,5.616974023236955,-0.1260342299938202,-0.19599075615406036,-0.10116297006607056,-1.0,6.0,-1.0
3.133333333333332,8.289634205923587,49.2429598994918,5.438442786038754,8.289634205923585,49.242959899491815,5.438442786038762,-0.12749359011650085,-0.19787929952144623,-0.08968648314476013,-1.0,6.0,-1.0
3.166666666666665,8.029924947900085,49.06792431913128,5.25722740258562,8.02992494790009,49.06792431913129,5.25722740258561,-0.1289583295583725,-0.19976244866847992,-0.1011282354593277,-1.0,6.0,-1.0
3.1999999999999984,7.773431129890497,48.89019172623874,5.081634186173392,7.773431129890499,48.890191726238726,5.0816341861734,-0.13041071593761444,-0.20165161788463593,-0.08965126425027847,-1.0,6.0,-1.0
3.2333333333333316,7.529389246120731,48.708729996148364,4.923978663191256,7.529389246120727,48.708729996148364,4.923978663191251,-0.13189595937728882,-0.20351755619049072,-0.07817520201206207,-1.0,6.0,-1.0
3.266666666666665,7.282247782814209,48.52540409466616,4.7636449302204795,7.282247782814209,48.52540409466616,4.763644930220482,-0.13338719308376312,-0.20537766814231873,-0.08961738646030426,-1.0,6.0,-1.0
3.299999999999998,7.038183708355361,48.33952380974367,4.608861504442162,7.038183708355364,48.33952380974367,4.608861504442174,-0.13486619293689728,-0.20724374055862427,-0.07814083993434906,-1.0,6.0,-1.0
3.3333333333333313,6.791092161799737,48.151762043583986,4.451467595390892,6.79109216179973,48.151762043583986,4.451467595390882,-0.13635136187076569,-0.20910383760929108,-0.08958254009485245,-1.0,6.0,-1.0
3.3666666666666645,6.54707561800602,47.96146861926741,4.299639385553233,6.5470756180060095,47.9614686192674,4.299639385553235,-0.1378241330385208,-0.21097002923488617,-0.07810550928115845,-1.0,6.0,-1.0
3.3999999999999977,6.315082712139722,47.76776579731138,4.165490606837694,6.315082712139712,47.76776579731137,4.165490606837695,-0.13933178782463074,-0.21281136572360992,-0.06662942469120026,-1.0,6.0,-1.0
3.433333333333331,6.0800150661088574,47.57225664837274,4.0287204090928395,6.080015066108858,47.57225664837274,4.0287204090928475,-0.14084622263908386,-0.21464629471302032,-0.07807159423828125,-1.0,6.0,-1.0
3.466666666666664,5.850003517369801,47.37433743820599,3.8974193527141905,5.8500035173697915,47.37433743820599,3.897419352714186,-0.13874951004981995,-0.2164858728647232,-0.06659512221813202,-1.0,6.0,-1.0
3.4999999999999973,5.620402505211205,47.17459256131268,3.7635377737566404,5.6204025052112065,47.17459256131269,3.7635377737566524,-0.13666100800037384,-0.21831510961055756,-0.07803716510534286,-1.0,6.0,-1.0
3.5333333333333306,5.397105402644746,46.97248655652415,3.6350973466499883,5.397105402644735,46.97248655652416,3.6350973466499825,-0.13456130027770996,-0.2201465219259262,-0.06656074523925781,-1.0,6.0,-1.0
3.5666666666666638,5.188750197347313,46.767319730722,3.5239875200800683,5.188750197347313,46.76731973072201,3.5239875200800768,-0.1324997842311859,-0.22194980084896088,-0.05508556216955185,-1.0,6.0,-1.0
3.599999999999997,4.9806980433939305,46.56040841418139,3.410218115188016,4.980698043393918,46.56040841418139,3.4102181151880253,-0.13044708967208862,-0.22374345362186432,-0.06652891635894775,-1.0,6.0,-1.0
3.63333333333333,4.778721854472712,46.351274633074055,3.3017265933907947,4.778721854472721,46.351274633074055,3.301726593390798,-0.1283833235502243,-0.2255394011735916,-0.05505380779504776,-1.0,6.0,-1.0
3.6666666666666634,4.577078452814509,46.14040141764454,3.1905942633367994,4.57707845281452,46.140401417644554,3.1905942633368114,-0.12632855772972107,-0.227325901389122,-0.06649724394083023,-1.0,6.0,-1.0
3.6999999999999966,4.381459137971153,45.92734056864075,3.084701079206257,4.381459137971165,45.927340568640744,3.084701079206269,-0.12426260113716125,-0.22911451756954193,-0.0550222173333168,-1.0,6.0,-1.0
3.73333333333333,4.193196440346896,45.71204130646821,2.9859511622246933,4.19319644034689,45.71204130646821,2.9859511622246875,-0.12222134321928024,-0.2308855652809143,-0.05500710755586624,-1.0,4.0,-1.0
3.766666666666663,4.0149689809987805,45.49434824158035,2.8981660643446703,4.01496898099879,45.49434824158034,2.89816606434468,-0.12019483000040054,-0.23264503479003906,-0.04353342205286026,-1.0,6.0,-1.0
3.7999999999999963,3.836965762723249,45.27497851366916,2.8076550371509694,3.836965762723245,45.27497851366917,2.807655037150958,-0.11817800998687744,-0.2343958169221878,-0.05497829616069794,-1.0,6.0,-1.0
3.8333333333333295,3.6647124228564203,45.05357091384802,2.7221822804441063,3.6647124228564314,45.05357091384803,2.722182280444097,-0.11615004390478134,-0.23614875972270966,-0.04350472241640091,-1.0,6.0,-1.0
3.8666666666666627,3.492707193078051,44.83048305072637,2.633995585055715,3.4927071930780436,44.83048305072637,2.6339955850557155,-0.11413194984197617,-0.23789319396018982,-0.05494971573352814,-1.0,6.0,-1.0
3.899999999999996,3.326392747898772,44.60538441299402,2.5508011923727665,3.3263927478987614,44.60538441299402,2.550801192372777,-0.11210257560014725,-0.23963962495326996,-0.04347625747323036,-1.0,6.0,-1.0
3.933333333333329,3.160349484570685,44.37861509943564,2.4649032590754607,3.1603494845706734,44.37861509943565,2.4649032590754634,-0.11008326709270477,-0.24137772619724274,-0.054921381175518036,-1.0,6.0,-1.0
3.9666666666666623,2.9999363764709783,44.149859155204304,2.383950235817365,2.9999363764709788,44.149859155204304,2.383950235817367,-0.10805255174636841,-0.24311761558055878,-0.043448057025671005,-1.0,6.0,-1.0
3.9999999999999956,2.846398253901423,43.91908797025884,2.309785278755902,2.846398253901423,43.919087970258836,2.309785278755897,-0.10604850947856903,-0.24484217166900635,-0.04343470558524132,-1.0,4.0,-1.0
4.033333333333329,2.702241810045341,43.68620973421056,2.246111570584627,2.702241810045336,43.686209734210564,2.2461115705846186,-0.10406056046485901,-0.24655665457248688,-0.031962811946868896,-1.0,6.0,-1.0
4.066666666666662,2.558233998668227,43.451709124239635,2.1796352942906734,2.5582339986682205,43.45170912423965,2.1796352942906676,-0.10208331793546677,-0.24826358258724213,-0.04340951144695282,-1.0,6.0,-1.0
4.099999999999995,2.419565098157518,43.21534325825103,2.1178893561135186,2.4195650981575274,43.21534325825103,2.1178893561135217,-0.10009470582008362,-0.2499723583459854,-0.03193777799606323,-1.0,6.0,-1.0
4.133333333333328,2.2810650706983244,42.97735564222857,2.0533474543747094,2.2810650706983346,42.97735564222857,2.053347454374706,-0.09811697900295258,-0.25167375802993774,-0.04338464513421059,-1.0,6.0,-1.0
4.166666666666662,2.147840527381666,42.73752403026635,1.9934857973515177,2.1478405273816668,42.73752403026636,1.9934857973515145,-0.09612774848937988,-0.253376841545105,-0.03191307559609413,-1.0,6.0,-1.0
4.199999999999995,2.0148046080190953,42.49606837372039,1.9308337914881895,2.014804608019097,42.49606837372039,1.930833791488201,-0.09414957463741302,-0.2550727427005768,-0.04336011782288551,-1.0,6.0,-1.0
4.233333333333328,1.8869795435884826,42.25279335988229,1.8728107664184899,1.8869795435884715,42.2527933598823,1.872810766418493,-0.09215977787971497,-0.25677013397216797,-0.031888727098703384,-1.0,6.0,-1.0
4.266666666666661,1.7593624206609444,42.0079001093084,1.8120019872531037,1.7593624206609395,42.00790010930841,1.8120019872530921,-0.09018120914697647,-0.25846055150032043,-0.04333595559000969,-1.0,6.0,-1.0
4.2999999999999945,1.63689087202128,41.76121187253978,1.75577018475784,1.6368908720212698,41.76121187253979,1.7557701847578455,-0.08819088339805603,-0.26015228033065796,-0.03186475485563278,-1.0,6.0,-1.0
4.333333333333328,1.5146464590741686,41.512896420844015,1.6967564140701206,1.514646459074171,41.512896420844015,1.6967564140701223,-0.08621197193861008,-0.2618372142314911,-0.04331217706203461,-1.0,6.0,-1.0
4.366666666666661,1.3974818585139832,41.26281022571796,1.6422668903437176,1.3974818585139737,41.262810225717956,1.6422668903437179,-0.08422116190195084,-0.26352331042289734,-0.03184117004275322,-1.0,6.0,-1.0
4.399999999999994,1.2805628330257313,41.01110018616985,1.5849981390238075,1.2805628330257228,41.01110018616984,1.5849981390237962,-0.08224193751811981,-0.2652027904987335,-0.04328879714012146,-1.0,6.0,-1.0
4.433333333333327,1.1686576505523179,40.75764650376116,1.5322005805421,1.1686576505523196,40.75764650376115,1.5322005805420948,-0.08025070279836655,-0.2668832838535309,-0.031817998737096786,-1.0,6.0,-1.0
4.466666666666661,1.062860828391886,40.50243186460059,1.4856178063196654,1.0628608283918746,40.50243186460058,1.485617806319675,-0.07828924804925919,-0.2685520052909851,-0.031807251274585724,-1.0,4.0,-1.0
4.499999999999994,0.9653833173736165,40.245448967975165,1.448759007127292,0.9653833173736122,40.24544896797516,1.4487590071272822,-0.07634592056274414,-0.27021297812461853,-0.02033802680671215,-1.0,6.0,-1.0
4.533333333333327,0.8680215810683348,39.98687998985891,1.4090139602480682,0.868021581068342,39.9868799898589,1.409013960248062,-0.07441478967666626,-0.27186810970306396,-0.0317874513566494,-1.0,6.0,-1.0
4.56666666666666,0.7753756816883219,39.726642631095,1.3735242349490895,0.7753756816883199,39.726642631095,1.3735242349490824,-0.07247164845466614,-0.27352431416511536,-0.02031845413148403,-1.0,6.0,-1.0
4.599999999999993,0.6828642543518113,39.46481394126726,1.3351499929525332,0.6828642543518177,39.46481394126726,1.3351499929525281,-0.07054086029529572,-0.2751748561859131,-0.03176811337471008,-1.0,6.0,-1.0
4.633333333333327,0.5950034137883465,39.2013336751784,1.300979220232479,0.5950034137883577,39.20133367517838,1.3009792202324697,-0.0685979425907135,-0.27682629227638245,-0.020299356430768967,-1.0,6.0,-1.0
4.66666666666666,0.5072958633977954,38.93626670464843,1.2639250491334642,0.507295863397786,38.936266704648446,1.2639250491334595,-0.06666754186153412,-0.27847230434417725,-0.03174925968050957,-1.0,6.0,-1.0
4.699999999999993,0.4241737369392695,38.66956181283162,1.2310222902233128,0.42417373693926375,38.66956181283162,1.2310222902233199,-0.0647248774766922,-0.28011903166770935,-0.0202807504683733,-1.0,6.0,-1.0
4.733333333333326,0.34122341756471675,38.401268602819016,1.1952364619551281,0.34122341756472474,38.40126860281901,1.1952364619551292,-0.06279490143060684,-0.28176048398017883,-0.031730908900499344,-1.0,6.0,-1.0
4.7666666666666595,0.2627936111674071,38.131352244152986,1.163550120931702,0.26279361116740796,38.131352244152986,1.1635501209317072,-0.060852520167827606,-0.28340256214141846,-0.02026265300810337,-1.0,6.0,-1.0
4.799999999999993,0.18455445043494048,37.859852844100914,1.1289807754123493,0.18455445043494367,37.85985284410091,1.1289807754123544,-0.05892299860715866,-0.2850395441055298,-0.03171307593584061,-1.0,6.0,-1.0
4.833333333333326,0.11077075484992463,37.58674113755811,1.0984585579460706,0.11077075484993251,37.58674113755809,1.0984585579460746,-0.05698094144463539,-0.2866770029067993,-0.020245086401700974,-1.0,6.0,-1.0
4.866666666666659,0.037196418804640745,37.3120478317606,1.0650524500380423,0.03719641880463083,37.312047831760594,1.0650524500380418,-0.055051904171705246,-0.28830957412719727,-0.03169577941298485,-1.0,6.0,-1.0
4.899999999999992,-0.03198685729325383,37.03575538862339,1.035641746778966,-0.03198685729326196,37.03575538862339,1.0356417467789745,-0.05311020091176033,-0.2899424433708191,-0.020228063687682152,-1.0,6.0,-1.0
4.933333333333326,-0.10094199417118067,36.7578790883258,1.003345843179003,-0.10094199417119183,36.7578790883258,1.0033458431789988,-0.051181674003601074,-0.29157063364982605,-0.03167903795838356,-1.0,6.0,-1.0
4.966666666666659,-0.16557016222641166,36.47842474896193,0.9749936422232716,-0.1655701622264096,36.47842474896193,0.9749936422232633,-0.0492403544485569,-0.29319897294044495,-0.020211605355143547,-1.0,6.0,-1.0
4.999999999999992,-0.2299513113928453,36.19738323480804,0.9437541386704428,-0.2299513113928377,36.19738323480803,0.9437541386704301,-0.04731237143278122,-0.2948228716850281,-0.031662870198488235,-1.0,6.0,-1.0
5.033333333333325,-0.2900693017097444,35.91477642241068,0.9164069105410512,-0.2900693017097329,35.914776422410675,0.9164069105410577,-0.045371461659669876,-0.2964467406272888,-0.020195728167891502,-1.0,6.0,-1.0
5.066666666666658,-0.34992116848124516,35.63058221644167,0.8861698175944107,-0.3499211684812552,35.63058221644167,0.8861698175944168,-0.04344404861330986,-0.2980663478374481,-0.03164729103446007,-1.0,6.0,-1.0
5.099999999999992,-0.40557310862236895,35.34483385104029,0.859773803983902,-0.40557310862238116,35.34483385104029,0.8597738039839106,-0.04150357469916344,-0.29968583583831787,-0.02018045075237751,-1.0,6.0,-1.0
5.133333333333325,-0.4609396432254574,35.057500775351656,0.8304848230646201,-0.4609396432254502,35.05750077535165,0.8304848230646321,-0.039576757699251175,-0.3013012409210205,-0.03163231909275055,-1.0,6.0,-1.0
5.166666666666658,-0.5121691576121532,34.76862978512215,0.8049857550710546,-0.5121691576121534,34.76862978512216,0.8049857550710526,-0.03763674572110176,-0.30291637778282166,-0.020165788009762764,-1.0,6.0,-1.0
5.199999999999991,-0.563093652736019,34.47817055497102,0.7765902479073069,-0.563093652736008,34.47817055497102,0.7765902479072962,-0.035710543394088745,-0.3045276403427124,-0.03161797299981117,-1.0,6.0,-1.0
5.2333333333333245,-0.6099435069625647,34.18618394623722,0.7519338785386486,-0.6099435069625708,34.186183946237215,0.7519338785386549,-0.03377101570367813,-0.3061384856700897,-0.020151758566498756,-1.0,6.0,-1.0
5.266666666666658,-0.6564683324071423,33.89261229447339,0.7243771240858269,-0.6564683324071365,33.89261229447339,0.7243771240858147,-0.03184545412659645,-0.30774569511413574,-0.03160426393151283,-1.0,6.0,-1.0
5.299999999999991,-0.6989803354044595,33.59752259503495,0.7005090268840843,-0.6989803354044469,33.59752259503496,0.7005090268840936,-0.02990643121302128,-0.3093523383140564,-0.02013837918639183,-1.0,6.0,-1.0
5.333333333333324,-0.7366500963038234,33.30093764092756,0.6819176840248719,-0.7366500963038272,33.30093764092755,0.681917684024879,-0.028002414852380753,-0.31095361709594727,-0.020132670179009438,-1.0,4.0,-1.0
5.366666666666657,-0.772246161792347,33.00281952635871,0.6636465120650874,-0.7722461617923521,33.00281952635871,0.6636465120650791,-0.026098819449543953,-0.3125530481338501,-0.020127130672335625,-1.0,4.0,-1.0
5.399999999999991,-0.8013825404693137,32.70325751432788,0.6538088728384297,-0.8013825404693111,32.70325751432788,0.6538088728384296,-0.024216752499341965,-0.31414899230003357,-0.008663215674459934,-1.0,6.0,-1.0
5.433333333333324,-0.8303015293107419,32.40213051512781,0.6409696829372619,-0.8303015293107534,32.40213051512782,0.640969682937251,-0.022349273785948753,-0.315742164850235,-0.02011803537607193,-1.0,6.0,-1.0
5.466666666666657,-0.8555170294144496,32.09951919609484,0.631607604278535,-0.8555170294144376,32.09951919609483,0.6316076042785248,-0.02046823501586914,-0.3173348307609558,-0.008654462173581123,-1.0,6.0,-1.0
5.49999999999999,-0.8804926099591578,31.795343484749488,0.6192406008180438,-0.8804926099591512,31.7953434847495,0.6192406008180354,-0.018601931631565094,-0.3189249336719513,-0.0201096311211586,-1.0,6.0,-1.0
5.5333333333333234,-0.9018225162855996,31.489690521902176,0.610304307239947,-0.901822516285598,31.489690521902176,0.6103043072399474,-0.016721928492188454,-0.32051438093185425,-0.008646409027278423,-1.0,6.0,-1.0
5.566666666666657,-0.9228894401720658,31.182472365884017,0.5983593926874983,-0.9228894401720686,31.18247236588401,0.5983593926875025,-0.014856810681521893,-0.3221014738082886,-0.020101934671401978,-1.0,6.0,-1.0
5.59999999999999,-0.9403680706965664,30.873780439196484,0.589799016551344,-0.9403680706965778,30.873780439196484,0.5897990165513349,-0.01297785434871912,-0.3236877918243408,-0.008639071136713028,-1.0,6.0,-1.0
5.633333333333323,-0.9575601012346321,30.563529909821998,0.578225888249545,-0.9575601012346251,30.56352990982201,0.578225888249555,-0.011113927699625492,-0.32527199387550354,-0.020094959065318108,-1.0,6.0,-1.0
5.666666666666656,-0.9712204270567962,30.25180844062397,0.5699915781961171,-0.9712204270567975,30.25180844062397,0.5699915781961196,-0.009236021898686886,-0.32685527205467224,-0.008632463403046131,-1.0,6.0,-1.0
5.6999999999999895,-0.9845703043618295,29.938527933026357,0.5587398667978382,-0.9845703043618259,29.93852793302635,0.5587398667978313,-0.007373291067779064,-0.32843664288520813,-0.020088722929358482,-1.0,6.0,-1.0
5.733333333333323,-0.994444126177495,29.62378677029911,0.5507816905839101,-0.9944441261774938,29.623786770299095,0.5507816905839152,-0.0054964409209787846,-0.33001700043678284,-0.008626599796116352,-1.0,6.0,-1.0
5.766666666666656,-1.003982870227795,29.30748623020968,0.5398010175667437,-1.003982870227784,29.307486230209683,0.5398010175667316,-0.003634908003732562,-0.33159565925598145,-0.020083237439393997,-1.0,6.0,-1.0
5.799999999999989,-1.0101008665639737,28.989727492280927,0.5320690446012399,-1.0101008665639815,28.989727492280927,0.5320690446012293,-0.0017591145588085055,-0.33317315578460693,-0.008621495217084885,-1.0,6.0,-1.0
5.833333333333322,-1.0158588101882018,28.67040906651732,0.521308936261595,-1.0158588101882116,28.67040906651732,0.521308936261586,0.00010122043750016019,-0.33474916219711304,-0.020078519359230995,-1.0,6.0,-1.0
5.866666666666656,-1.0182500252438778,28.349640484327615,0.513753080215923,-1.0182500252438733,28.349640484327608,0.5137530802159289,0.001975958002731204,-0.33632394671440125,-0.008617165498435497,-1.0,6.0,-1.0
5.899999999999989,-1.0202557563448715,28.02731777280266,0.5031629278668273,-1.020255756344863,28.027317772802668,0.503162927866834,0.0038350974209606647,-0.3378974199295044,-0.02007458172738552,-1.0,6.0,-1.0
5.933333333333322,-1.0189480825372996,27.70354312860684,0.4957331773628188,-1.018948082537303,27.703543128606846,0.49573317736280986,0.005708782933652401,-0.3394695520401001,-0.00861362274736166,-1.0,6.0,-1.0
5.966666666666655,-1.017228917016815,27.378220048549622,0.4852624546037546,-1.0172289170168067,27.378220048549625,0.4852624546037422,0.007566730957478285,-0.34104061126708984,-0.02007143944501877,-1.0,6.0,-1.0
5.9999999999999885,-1.0122490604621324,27.051445059657205,0.47790848732254926,-1.0122490604621415,27.051445059657215,0.477908487322546,0.009439369663596153,-0.3426102101802826,-0.008610882796347141,-1.0,6.0,-1.0
6.033333333333322,-1.0068308009491138,26.723127344098472,0.4675064342977214,-1.0068308009491092,26.723127344098476,0.4675064342977265,0.011296134442090988,-0.3441789746284485,-0.02006910741329193,-1.0,6.0,-1.0
6.066666666666655,-0.9982035872259971,26.393359374040866,0.46017798142728245,-0.9982035872259968,26.393359374040877,0.46017798142727906,0.013167735189199448,-0.34574612975120544,-0.008608957752585411,-1.0,6.0,-1.0
6.099999999999988,-0.9891107024254743,26.062049052533204,0.4497938624102751,-0.9891107024254829,26.062049052533215,0.4497938624102703,0.015023325569927692,-0.34731268882751465,-0.020067594945430756,-1.0,6.0,-1.0
6.133333333333321,-0.9768597726942545,25.729293489848857,0.4424403992875018,-0.9768597726942466,25.72929348984886,0.4424403992874987,0.01689389906823635,-0.34887751936912537,-0.008607862517237663,-1.0,6.0,-1.0
6.1666666666666545,-0.9641151679783416,25.39499984128513,0.43202313144562005,-0.9641151679783522,25.394999841285127,0.43202313144561577,0.01874832808971405,-0.35044199228286743,-0.020066920667886734,-1.0,6.0,-1.0
6.199999999999988,-0.9482625365101955,25.05926025791058,0.4245941089414177,-0.9482625365102023,25.059260257910587,0.4245941089414243,0.020617885515093803,-0.35200464725494385,-0.008607610128819942,-1.0,6.0,-1.0
6.233333333333321,-0.9318874290796589,24.72198682898338,0.4140925364159772,-0.9318874290796492,24.72198682898339,0.41409253641598887,0.022471169009804726,-0.3535671532154083,-0.02006709575653076,-1.0,6.0,-1.0
6.266666666666654,-0.9124535801732468,24.38326835433491,0.40653715312877564,-0.912453580173248,24.383268354334916,0.40653715312876837,0.02433972805738449,-0.3551277220249176,-0.008608214557170868,-1.0,6.0,-1.0
6.299999999999987,-0.8924677050461005,24.043020586413824,0.39589996348956186,-0.8924677050461052,24.043020586413817,0.3958999634895704,0.02619188092648983,-0.35668838024139404,-0.020068133249878883,-1.0,6.0,-1.0
6.333333333333321,-0.8705442276491279,23.701328975601495,0.3881698592216432,-0.8705442276491278,23.701328975601495,0.38816985922164415,0.0262601301074028,-0.35824716091156006,-0.008609610609710217,-1.0,4.0,-1.0
6.366666666666654,-0.8486782194763623,23.35810945727522,0.37735829184457054,-0.8486782194763509,23.35810945727522,0.3773582918445809,0.028112031519412994,-0.35980650782585144,-0.02006976306438446,-1.0,6.0,-1.0
6.399999999999987,-0.8259896782460588,23.013447706342788,0.36942644111135187,-0.8259896782460513,23.013447706342784,0.36942644111135514,0.02638084441423416,-0.36136406660079956,-0.008611398749053478,-1.0,6.0,-1.0
6.43333333333332,-0.803962441386494,22.667260055410154,0.3584243776650217,-0.8039624413864815,22.667260055410143,0.35842437766502233,0.028233371675014496,-0.3629226088523865,-0.02007158286869526,-1.0,6.0,-1.0
6.4666666666666535,-0.7811490526158459,22.319628282971383,0.3502839291453165,-0.7811490526158562,22.319628282971397,0.35028392914531464,0.026502955704927444,-0.3644794523715973,-0.008613246493041515,-1.0,6.0,-1.0
6.499999999999987,-0.7589555577847888,21.970476117929152,0.33908520721926527,-0.7589555577847839,21.97047611792915,0.3390852072192691,0.028356119990348816,-0.3660373389720917,-0.020073462277650833,-1.0,6.0,-1.0
6.53333333333332,-0.7360122288967782,21.619874452851274,0.33073031704346095,-0.7360122288967718,21.619874452851285,0.33073031704345723,0.026626484468579292,-0.36759358644485474,-0.008615156635642052,-1.0,6.0,-1.0
6.566666666666653,-0.7147203182200713,21.267755694130567,0.31933132822163446,-0.7147203182200617,21.267755694130567,0.319331328221647,0.026680972427129745,-0.3691510856151581,-0.020075324922800064,-1.0,4.0,-1.0
6.599999999999986,-0.693354643074155,20.9141894978326,0.31076909222699833,-0.6933546430741505,20.914189497832602,0.31076909222699556,0.024953005835413933,-0.37070736289024353,-0.008616841398179531,-1.0,6.0,-1.0
6.6333333333333195,-0.6725210446837578,20.559106369850156,0.2991825805840238,-0.6725210446837684,20.55910636985016,0.29918258058402775,0.026808345690369606,-0.37226471304893494,-0.02007690817117691,-1.0,6.0,-1.0
6.666666666666653,-0.6510048001886064,20.202571897765456,0.29041714894802817,-0.6510048001886134,20.202571897765456,0.2904171489480243,0.025081166997551918,-0.37382063269615173,-0.00861845538020134,-1.0,6.0,-1.0
6.699999999999986,-0.6310522721679077,19.84452503300194,0.2786405218363649,-0.6310522721678994,19.844525033001936,0.27864052183635396,0.02513784170150757,-0.375377893447876,-0.020078474655747414,-1.0,4.0,-1.0
6.733333333333319,-0.611093399354194,19.485024711721913,0.2696787744152533,-0.6110933993541953,19.48502471172191,0.2696787744152524,0.023412346839904785,-0.37693411111831665,-0.008619839325547218,-1.0,6.0,-1.0
6.766666666666652,-0.5926521628377954,19.124011355673805,0.2577274136840607,-0.5926521628378012,19.12401135567381,0.2577274136840645,0.023470565676689148,-0.37849166989326477,-0.020079676061868668,-1.0,4.0,-1.0
6.799999999999986,-0.5731629574794408,18.7615412346365,0.24858370010979924,-0.5731629574794477,18.761541234636507,0.248583700109808,0.02354607544839382,-0.38004815578460693,-0.00862093735486269,-1.0,4.0,-1.0
6.833333333333319,-0.5555782648828286,18.397562796061752,0.23646375537952266,-0.5555782648828396,18.39756279606175,0.2364637553795174,0.02180562913417816,-0.3816058933734894,-0.020080722868442535,-1.0,6.0,-1.0
6.866666666666652,-0.5376221539507341,18.032125286393295,0.22714616389514886,-0.5376221539507328,18.032125286393306,0.22714616389515146,0.021882832050323486,-0.3831629753112793,-0.008621799759566784,-1.0,4.0,-1.0
6.899999999999985,-0.5215249899758793,17.665177562304702,0.21487287038458452,-0.5215249899758766,17.6651775623047,0.21487287038457864,0.020143937319517136,-0.3847212791442871,-0.020081400871276855,-1.0,6.0,-1.0
6.9333333333333185,-0.5040150816514932,17.296771358927536,0.2053956353078139,-0.5040150816514974,17.29677135892753,0.20539563530780502,0.022022144868969917,-0.3862789273262024,-0.008622371591627598,-1.0,6.0,-1.0
6.966666666666652,-0.4876780601926279,16.926853967741785,0.19297228362084087,-0.48767806019263266,16.92685396774179,0.19297228362083355,0.0202838983386755,-0.38783758878707886,-0.020082000643014908,-1.0,6.0,-1.0
6.999999999999985,-0.472110929037389,16.555476223591405,0.18333559813618985,-0.47211092903739504,16.555476223591405,0.18333559813617725,0.018564272671937943,-0.38939592242240906,-0.008622837252914906,-1.0,6.0,-1.0
7.033333333333318,-0.4568107311486516,16.18258966315077,0.17077609677993644,-0.45681073114866216,16.182589663150786,0.17077609677993236,0.020427122712135315,-0.39095547795295715,-0.020082224160432816,-1.0,6.0,-1.0
7.066666666666651,-0.44102682415245203,15.808239089852004,0.16099133317657158,-0.44102682415246275,15.80823908985201,0.16099133317657846,0.018708279356360435,-0.3925143778324127,-0.008623088710010052,-1.0,6.0,-1.0
7.0999999999999845,-0.42761525762162866,15.4323823254614,0.14829655112340137,-0.4276152576216297,15.432382325461388,0.1482965511234068,0.016973158344626427,-0.3940749168395996,-0.020082341507077217,-1.0,6.0,-1.0
7.133333333333318,-0.41289174344128887,15.055055392498199,0.13837804476458287,-0.41289174344127944,15.055055392498202,0.13837804476459226,0.018855558708310127,-0.3956351578235626,-0.00862295925617218,-1.0,6.0,-1.0
7.166666666666651,-0.39741231385285075,14.676270844108554,0.1326282195902833,-0.3974123138528576,14.676270844108563,0.13262821959028046,0.017094383016228676,-0.3971976935863495,-0.008623739704489708,-1.0,4.0,-1.0
7.199999999999984,-0.3835972128754492,14.29599457295494,0.12679821538360744,-0.38359721287544174,14.29599457295493,0.12679821538360334,0.015334377996623516,-0.39876097440719604,-0.008624309673905373,-1.0,4.0,-1.0
7.233333333333317,-0.3675942298365896,13.914271622502383,0.12793881542202093,-0.3675942298365809,13.914271622502378,0.12793881542201543,0.01714724861085415,-0.4003259241580963,0.0028336646500974894,-1.0,6.0,-1.0
7.266666666666651,-0.3527180039544634,13.531035215620005,0.1261618319115528,-0.35271800395446035,13.53103521562,0.1261618319115594,0.015342796221375465,-0.40189212560653687,-0.00862701516598463,-1.0,6.0,-1.0
7.299999999999984,-0.33891418098160425,13.146319334131672,0.12710893580482377,-0.3389141809816122,13.146319334131666,0.12710893580481475,0.01355738379061222,-0.40345823764801025,0.0028311137575656176,-1.0,6.0,-1.0
7.333333333333317,-0.32640496935486885,12.760093133029041,0.12516535766173592,-0.32640496935486046,12.760093133029047,0.12516535766172823,0.013554281555116177,-0.4050257205963135,-0.00862921867519617,-1.0,4.0,-1.0
7.36666666666665,-0.31328282769533394,12.372384696575871,0.12594683391079922,-0.3132828276953435,12.372384696575882,0.12594683391079475,0.013569417409598827,-0.4065932631492615,0.0028290394693613052,-1.0,4.0,-1.0
7.3999999999999835,-0.30184401575683406,11.984238362468613,0.12384369922200558,-0.301844015756845,11.984238362468615,0.12384369922199327,0.01176714338362217,-0.4063611626625061,-0.008631217293441296,-1.0,4.0,-1.0
7.433333333333317,-0.2904733410117579,11.597402935025723,0.1244528077697829,-0.29047334101176514,11.597402935025723,0.12445280776978622,0.011783383786678314,-0.40432947874069214,0.0028272620402276516,-1.0,4.0,-1.0
7.46666666666665,-0.27967065833261495,11.212491480082726,0.12218305949379026,-0.2796706583326076,11.212491480082738,0.12218305949380044,0.011781388893723488,-0.40230146050453186,-0.008632847107946873,-1.0,4.0,-1.0
7.499999999999983,-0.26940128323704055,10.829528876399605,0.1226204106654319,-0.26940128323705204,10.829528876399609,0.12262041066543061,0.009998184628784657,-0.4002760946750641,0.002825723495334387,-1.0,6.0,-1.0
7.533333333333316,-0.2592275845952419,10.44848476637092,0.12019605894590124,-0.2592275845952438,10.448484766370907,0.1201960589459111,0.011796465143561363,-0.3982544243335724,-0.008634238503873348,-1.0,6.0,-1.0
7.5666666666666496,-0.248977874516916,10.06938296019949,0.12047478692247353,-0.24897787451690373,10.069382960199492,0.12047478692246724,0.010013108141720295,-0.3962354063987732,0.002824341645464301,-1.0,6.0,-1.0
7.599999999999983,-0.23985757278533273,9.692195214968546,0.11790301076381139,-0.23985757278533412,9.692195214968535,0.11790301076380715,0.010012117214500904,-0.3942200839519501,-0.00863553024828434,-1.0,4.0,-1.0
7.633333333333316,-0.23133839263866673,9.316941059164323,0.11803981520283462,-0.23133839263867034,9.316941059164318,0.11803981520282991,0.008229544386267662,-0.3922075033187866,0.002823270857334137,-1.0,6.0,-1.0
7.666666666666649,-0.22283343184018845,8.943596513623014,0.11534263722656034,-0.222833431840186,8.943596513623016,0.11534263722656966,0.010028809309005737,-0.39019855856895447,-0.008636459708213806,-1.0,6.0,-1.0
7.699999999999982,-0.21431975977610193,8.572178674642714,0.11535066157855595,-0.21431975977610948,8.572178674642707,0.11535066157855638,0.008246064186096191,-0.3881923258304596,0.0028223483823239803,-1.0,6.0,-1.0
7.733333333333316,-0.20685582514135514,8.202665477841798,0.11253421911106319,-0.20685582514134548,8.202665477841805,0.11253421911107117,0.008246036246418953,-0.386189728975296,-0.008637296967208385,-1.0,4.0,-1.0
7.766666666666649,-0.19898645945530166,7.835072115176698,0.11242623040170423,-0.19898645945529436,7.83507211517669,0.11242623040171502,0.008263356983661652,-0.3841899633407593,0.002821647096425295,-1.0,4.0,-1.0
7.799999999999982,-0.19255830626582363,7.469377151851865,0.10950381212191518,-0.19255830626581458,7.469377151851867,0.1095038121219036,0.006464025937020779,-0.38219377398490906,-0.00863791536539793,-1.0,6.0,-1.0
7.833333333333315,-0.18532785559460668,7.105596588060082,0.10929327967409284,-0.1853278555946121,7.10559658806009,0.10929327967408292,0.008281403221189976,-0.38020044565200806,0.0028211611788719893,-1.0,6.0,-1.0
7.8666666666666485,-0.1788572225545353,6.743708292661765,0.10627500565859674,-0.17885722255452877,6.74370829266176,0.10627500565858528,0.006482059136033058,-0.3782106041908264,-0.008638394065201283,-1.0,6.0,-1.0
7.899999999999982,-0.17161839564191142,6.383727480116448,0.1059650343263259,-0.1716183956419195,6.383727480116448,0.10596503432631965,0.008299246430397034,-0.376223623752594,0.002820686437189579,-1.0,6.0,-1.0
7.933333333333315,-0.16510327026194918,6.0256337452914215,0.10285222970778943,-0.16510327026194985,6.02563374529143,0.10285222970780003,0.006499890238046646,-0.37424013018608093,-0.008638862520456314,-1.0,6.0,-1.0
7.966666666666648,-0.15892732562241696,5.669440437715108,0.10244713826585279,-0.15892732562241146,5.669440437715114,0.10244713826586223,0.006517587695270777,-0.37225955724716187,0.002820295747369528,-1.0,4.0,-1.0
7.999999999999981,-0.15300856075473523,5.315129000634861,0.09925069619332401,-0.15300856075474298,5.315129000634865,0.09925069619332427,0.006518460810184479,-0.37028244137763977,-0.008639125153422356,-1.0,4.0,-1.0
8.033333333333315,-0.14681764043508908,4.962711497554697,0.0987603781194747,-0.1468176404350913,4.962711497554706,0.09876037811948156,0.006535958964377642,-0.3683082163333893,0.002820036606863141,-1.0,4.0,-1.0
8.066666666666649,-0.14192273810543743,4.612169985917485,0.09548492767339756,-0.14192273810543027,4.612169985917495,0.09548492767340122,0.004737510811537504,-0.36633747816085815,-0.00863930769264698,-1.0,6.0,-1.0
8.099999999999982,-0.13635788597942586,4.263515996998409,0.09492021132275216,-0.13635788597942247,4.263515996998421,0.09492021132275347,0.006555052008479834,-0.3643697202205658,0.002819976070895791,-1.0,6.0,-1.0
8.133333333333315,-0.13141001756100665,3.916732391772463,0.09157468254388897,-0.13141001756100756,3.916732391772471,0.09157468254388909,0.004756571725010872,-0.362405389547348,-0.008639364503324032,-1.0,6.0,-1.0
8.166666666666648,-0.12582498485632526,3.5718290545426328,0.09093778833779949,-0.12582498485633334,3.5718290545426323,0.0909377883377892,0.006573904771357775,-0.36044397950172424,0.002819922287017107,-1.0,6.0,-1.0
8.199999999999982,-0.12082306925639817,3.228791044827662,0.0875227583844408,-0.12082306925638987,3.2287910448276596,0.08752275838445285,0.004775393754243851,-0.35848602652549744,-0.008639413863420486,-1.0,6.0,-1.0
8.233333333333315,-0.11629018434279928,2.8876271416485095,0.08681708552212364,-0.11629018434279119,2.8876271416485007,0.08681708552211674,0.004793222527951002,-0.356531023979187,0.0028199434746056795,-1.0,4.0,-1.0
8.266666666666648,-0.11187643063948383,2.548322457003829,0.08334230508526556,-0.11187643063947708,2.5483224570038265,0.08334230508527157,0.004794923588633537,-0.3545794188976288,-0.008639275096356869,-1.0,4.0,-1.0
8.299999999999981,-0.10731916430998106,2.2108853570700444,0.08257663818947979,-0.10731916430997665,2.2108853570700377,0.08257663818946971,0.004812535829842091,-0.3526307940483093,0.0028200841043144464,-1.0,4.0,-1.0
8.333333333333314,-0.1039220498134486,1.8753017495565865,0.0790459251029082,-0.10392204981344604,1.875301749556594,0.07904592510291304,0.003014898393303156,-0.35068559646606445,-0.00863906554877758,-1.0,6.0,-1.0
8.366666666666648,-0.09998273291021931,1.5415789999809404,0.07822998378809647,-0.09998273291022641,1.5415789999809322,0.07822998378809579,0.004832538776099682,-0.3487434387207031,0.0028204056434333324,-1.0,6.0,-1.0
8.39999999999998,-0.09652658590864945,1.2097043509506915,0.07465129308543113,-0.09652658590865165,1.2097043509506995,0.07465129308543161,0.003034848952665925,-0.3468046486377716,-0.008638742379844189,-1.0,6.0,-1.0
8.433333333333314,-0.09255978957693775,0.8796839673269626,0.0737866016643694,-0.0925597895769347,0.8796839673269694,0.07378660166436282,0.004852264188230038,-0.34486886858940125,0.0028207299765199423,-1.0,6.0,-1.0
8.466666666666647,-0.0890442243869852,0.5515058849691107,0.07015996053598492,-0.08904422438699337,0.5515058849690998,0.07015996053597502,0.0030545243062078953,-0.3429364264011383,-0.008638415485620499,-1.0,6.0,-1.0
8.49999999999998,-0.08504919382931693,0.22517571938770758,0.06924691115584955,-0.08504919382932286,0.22517571938769582,0.06924691115585659,0.004871716722846031,-0.3410070240497589,0.0028210573364049196,-1.0,6.0,-1.0
8.533333333333314,-0.08147382387572656,-0.0993179054828857,0.06557232556023694,-0.08147382387573775,-0.09931790548289102,0.06557232556024717,0.0030739272478967905,-0.33908095955848694,-0.00863808672875166,-1.0,6.0,-1.0
8.566666666666647,-0.07852378793353462,-0.42197009504843935,0.06461358290891686,-0.07852378793352531,-0.4219700950484367,0.06461358290892545,0.0030916021205484867,-0.3371579647064209,0.0028214494232088327,-1.0,4.0,-1.0
8.59999999999998,-0.0755320379767281,-0.7427915345699916,0.06089977607365248,-0.07553203797672588,-0.7427915345699955,0.06089977607365097,0.0030940105207264423,-0.3352382779121399,-0.008637589402496815,-1.0,4.0,-1.0
8.633333333333313,-0.07255163202477882,-1.061777903908457,0.05990310873027664,-0.07255163202476951,-1.0617779039084638,0.05990310873028407,0.0031114532612264156,-0.3333216607570648,0.002821946982294321,-1.0,4.0,-1.0
8.666666666666647,-0.06949880727472459,-1.3789393658819602,0.05615097199007716,-0.06949880727472099,-1.3789393658819713,0.05615097199006933,0.003113802522420883,-0.3314083516597748,-0.008637091144919395,-1.0,4.0,-1.0
8.69999999999998,-0.06648758067339593,-1.6942722576566343,0.05511652289542386,-0.06648758067340808,-1.694272257656626,0.05511652289542565,0.003131014760583639,-0.3294981122016907,0.0028224457055330276,-1.0,4.0,-1.0
8.733333333333313,-0.06337358334208289,-2.0077859533122604,0.05132586327714481,-0.06337358334207392,-2.0077859533122573,0.05132586327713803,0.003133306512609124,-0.3275911808013916,-0.008636591956019402,-1.0,4.0,-1.0
8.766666666666646,-0.06140516718913268,-2.3194772383761,0.05025598928965431,-0.06140516718914392,-2.3194772383761117,0.05025598928966428,0.0013509959680959582,-0.32568734884262085,0.002823003800585866,-1.0,6.0,-1.0
8.79999999999998,-0.058873957046686,-2.6293553273432186,0.04643504021420693,-0.0588739570466822,-2.6293553273432306,0.046435040214218036,0.0031534796580672264,-0.32378679513931274,-0.008635936304926872,-1.0,6.0,-1.0
8.833333333333313,-0.05687349307839463,-2.937417526372442,0.045337033820001066,-0.05687349307838792,-2.937417526372447,0.04533703381998952,0.0013709295308217406,-0.32188934087753296,0.0028236594516783953,-1.0,6.0,-1.0
8.866666666666646,-0.0542806562955838,-3.243672173327379,0.04148647371154536,-0.05428065629557544,-3.243672173327373,0.04148647371155531,0.0031733454670757055,-0.3199951946735382,-0.008635281585156918,-1.0,6.0,-1.0
8.899999999999979,-0.05224796782203127,-3.5481176377112056,0.04036027422349434,-0.052247967822028334,-3.548117637711206,0.04036027422350226,0.0013905573869124055,-0.318104088306427,0.0028243144042789936,-1.0,6.0,-1.0
8.933333333333312,-0.049593648940285416,-3.8507612358718366,0.03647974841403176,-0.049593648940292154,-3.8507612358718397,0.03647974841402567,0.0031929067336022854,-0.3162163197994232,-0.008634627796709538,-1.0,6.0,-1.0
8.966666666666645,-0.04752857587216356,-4.151601231602713,0.03532529946602143,-0.04752857587216533,-4.151601231602716,0.03532529946602724,0.001409882795996964,-0.31433162093162537,0.002824969356879592,-1.0,6.0,-1.0
8.999999999999979,-0.04481291861548481,-4.450646306759631,0.03141446919629604,-0.04481291861547906,-4.4506463067596265,0.031414469196308484,0.003212166950106621,-0.31245023012161255,-0.008633973076939583,-1.0,6.0,-1.0
9.033333333333312,-0.042715304353456315,-4.747894173055206,0.030231731229746584,-0.042715304353455545,-4.7478941730552044,0.030231731229745106,0.0014289090177044272,-0.31057190895080566,0.0028256240766495466,-1.0,6.0,-1.0
9.066666666666645,-0.04101258979631815,-5.043351719978387,0.026292386695158553,-0.04101258979631387,-5.043351719978383,0.02629238669516408,0.0014318382600322366,-0.3086969554424286,-0.00863326620310545,-1.0,4.0,-1.0
9.099999999999978,-0.03952668765753634,-5.337019496167647,0.02508931028899258,-0.03952668765753066,-5.337019496167643,0.025089310288980298,0.0014486019499599934,-0.30682510137557983,0.002826418960466981,-1.0,4.0,-1.0
9.133333333333312,-0.037762893325015014,-5.628903113591556,0.021127959821737943,-0.037762893325017276,-5.628903113591545,0.021127959821738138,0.0014514551730826497,-0.3049565255641937,-0.008632472716271877,-1.0,4.0,-1.0
9.166666666666645,-0.036244231010619514,-5.919002282397215,0.019905326532022382,-0.03624423101061323,-5.919002282397212,0.019905326532032832,0.0014679757878184319,-0.3030910789966583,0.002827211981639266,-1.0,4.0,-1.0
9.199999999999978,-0.03441969856529894,-6.207323821451577,0.015921499711109666,-0.034419698565290896,-6.207323821451573,0.015921499711120706,0.0014707542723044753,-0.3012288808822632,-0.008631681092083454,-1.0,4.0,-1.0
9.233333333333311,-0.03286832703871443,-6.493867224740252,0.014679103704539823,-0.032868327038718566,-6.49386722474026,0.014679103704531887,0.0014870335580781102,-0.29936981201171875,0.0028280033729970455,-1.0,4.0,-1.0
9.266666666666644,-0.03098339218310016,-6.778638543730368,0.010672351785729228,-0.030983392183095915,-6.778638543730371,0.01067235178571879,0.0014897388173267245,-0.2975139915943146,-0.008630890399217606,-1.0,4.0,-1.0
9.299999999999978,-0.029399359533326837,-7.061638156778851,0.009410004295270946,-0.0293993595333243,-7.06163815677886,0.00941000429528289,0.0015057786367833614,-0.2956613004207611,0.0028287936002016068,-1.0,4.0,-1.0
9.33333333333331,-0.027454351087784046,-7.342871891192704,0.005379908099928064,-0.027454351087774862,-7.342871891192699,0.005379908099934467,0.001508411718532443,-0.2938118875026703,-0.008630101568996906,-1.0,4.0,-1.0
9.366666666666644,-0.025837711928676163,-7.6223401671674305,0.004097435083331816,-0.02583771192866818,-7.622340167167435,0.0040974350833329854,0.0015242139343172312,-0.2919655740261078,0.0028295826632529497,-1.0,4.0,-1.0
9.399999999999977,-0.023832956594240555,-7.9000481626543175,4.359775232506251e-05,-0.023832956594247383,-7.900048162654308,4.359775231919009e-05,0.001526776235550642,-0.29012250900268555,-0.008629313670098782,-1.0,4.0,-1.0
9.43333333333331,-0.023257985799783085,-8.175997193700843,-0.001257181085298463,-0.023257985799770804,-8.175997193700843,-0.001257181085296417,-0.0002569437201600522,-0.2882826328277588,0.0028304168954491615,-1.0,6.0,-1.0
9.466666666666644,-0.021838565836957872,-8.450191312347851,-0.005327628946669886,-0.021838565836951377,-8.45019131234785,-0.005327628946668243,0.0015458106063306332,-0.2864459753036499,-0.008628403767943382,-1.0,6.0,-1.0
9.499999999999977,-0.021231441620116587,-8.722633675400262,-0.006640466539048554,-0.021231441620125545,-8.722633675400273,-0.006640466539048707,-0.00023815687745809555,-0.2846124470233917,0.00283132609911263,-1.0,6.0,-1.0
